{"source":"CTA GTFS static schedule feed","sourceUrl":"https://www.transitchicago.com/downloads/sch_data/google_transit.zip","weightUnit":"meters","nodeCoordinateBasis":"average of rail platform stop coordinates used in stop_times, grouped by parent_station","weightBasis":"max(GTFS shape_dist_traveled delta converted from feet to meters, projected Euclidean distance between graph node coordinates), rounded upward to centimeters; falls back to projected Euclidean distance when GTFS distance is missing","stations":[{"id":"gtfs/station/40010","name":"Austin (Blue)","lat":41.870851,"lng":-87.776812,"sourceStopCount":1},{"id":"gtfs/station/40020","name":"Harlem/Lake","lat":41.886848,"lng":-87.803176,"sourceStopCount":1},{"id":"gtfs/station/40030","name":"Pulaski (Green)","lat":41.885412,"lng":-87.725404,"sourceStopCount":1},{"id":"gtfs/station/40040","name":"Quincy","lat":41.878723,"lng":-87.63374,"sourceStopCount":1},{"id":"gtfs/station/40050","name":"Davis","lat":42.04771,"lng":-87.683543,"sourceStopCount":1},{"id":"gtfs/station/40060","name":"Belmont (Blue)","lat":41.938132,"lng":-87.712359,"sourceStopCount":1},{"id":"gtfs/station/40070","name":"Jackson (Blue)","lat":41.878183,"lng":-87.629296,"sourceStopCount":1},{"id":"gtfs/station/40080","name":"Sheridan","lat":41.953775,"lng":-87.654929,"sourceStopCount":1},{"id":"gtfs/station/40090","name":"Damen (Brown)","lat":41.966286,"lng":-87.678639,"sourceStopCount":1},{"id":"gtfs/station/40100","name":"Morse","lat":42.008362,"lng":-87.665909,"sourceStopCount":1},{"id":"gtfs/station/40120","name":"35th/Archer","lat":41.829353,"lng":-87.680622,"sourceStopCount":1},{"id":"gtfs/station/40130","name":"51st","lat":41.80209,"lng":-87.618487,"sourceStopCount":1},{"id":"gtfs/station/40140","name":"Dempster-Skokie","lat":42.038951,"lng":-87.751919,"sourceStopCount":1},{"id":"gtfs/station/40150","name":"Pulaski (Pink)","lat":41.853732,"lng":-87.724311,"sourceStopCount":1},{"id":"gtfs/station/40160","name":"LaSalle/Van Buren","lat":41.8768,"lng":-87.631739,"sourceStopCount":1},{"id":"gtfs/station/40170","name":"Ashland (Green/Pink)","lat":41.885269,"lng":-87.666969,"sourceStopCount":1},{"id":"gtfs/station/40180","name":"Oak Park (Blue)","lat":41.872108,"lng":-87.791602,"sourceStopCount":1},{"id":"gtfs/station/40190","name":"Sox-35th","lat":41.831191,"lng":-87.630636,"sourceStopCount":1},{"id":"gtfs/station/40210","name":"Damen (Pink)","lat":41.854517,"lng":-87.675975,"sourceStopCount":1},{"id":"gtfs/station/40220","name":"Western (Blue - Forest Park Branch)","lat":41.875478,"lng":-87.688436,"sourceStopCount":1},{"id":"gtfs/station/40230","name":"Cumberland","lat":41.984246,"lng":-87.838028,"sourceStopCount":1},{"id":"gtfs/station/40240","name":"79th","lat":41.750419,"lng":-87.625112,"sourceStopCount":1},{"id":"gtfs/station/40250","name":"Kedzie-Homan","lat":41.874341,"lng":-87.70604,"sourceStopCount":1},{"id":"gtfs/station/40270","name":"Main","lat":42.033456,"lng":-87.679538,"sourceStopCount":1},{"id":"gtfs/station/40280","name":"Central (Green)","lat":41.887389,"lng":-87.76565,"sourceStopCount":1},{"id":"gtfs/station/40290","name":"Ashland/63rd","lat":41.77886,"lng":-87.663766,"sourceStopCount":1},{"id":"gtfs/station/40300","name":"Indiana","lat":41.821732,"lng":-87.621371,"sourceStopCount":1},{"id":"gtfs/station/40310","name":"Western (Orange)","lat":41.804546,"lng":-87.684019,"sourceStopCount":1},{"id":"gtfs/station/40320","name":"Division","lat":41.903355,"lng":-87.666496,"sourceStopCount":1},{"id":"gtfs/station/40330","name":"Grand (Red)","lat":41.891665,"lng":-87.628021,"sourceStopCount":1},{"id":"gtfs/station/40340","name":"Berwyn","lat":41.977984,"lng":-87.658668,"sourceStopCount":1},{"id":"gtfs/station/40350","name":"UIC-Halsted","lat":41.875474,"lng":-87.649707,"sourceStopCount":1},{"id":"gtfs/station/40360","name":"Southport","lat":41.943744,"lng":-87.663619,"sourceStopCount":1},{"id":"gtfs/station/40370","name":"Washington","lat":41.883164,"lng":-87.62944,"sourceStopCount":1},{"id":"gtfs/station/40380","name":"Clark/Lake","lat":41.885737,"lng":-87.630886,"sourceStopCount":1},{"id":"gtfs/station/40390","name":"Forest Park","lat":41.874257,"lng":-87.817318,"sourceStopCount":1},{"id":"gtfs/station/40400","name":"Noyes","lat":42.058282,"lng":-87.683337,"sourceStopCount":1},{"id":"gtfs/station/40420","name":"Cicero (Pink)","lat":41.85182,"lng":-87.745336,"sourceStopCount":1},{"id":"gtfs/station/40430","name":"Clinton (Blue)","lat":41.875539,"lng":-87.640984,"sourceStopCount":1},{"id":"gtfs/station/40440","name":"California (Pink)","lat":41.854109,"lng":-87.694774,"sourceStopCount":1},{"id":"gtfs/station/40450","name":"95th/Dan Ryan","lat":41.722377,"lng":-87.624342,"sourceStopCount":1},{"id":"gtfs/station/40460","name":"Merchandise Mart (Brown/Purple)","lat":41.888969,"lng":-87.633924,"sourceStopCount":1},{"id":"gtfs/station/40470","name":"Racine","lat":41.87592,"lng":-87.659458,"sourceStopCount":1},{"id":"gtfs/station/40480","name":"Cicero (Green)","lat":41.886519,"lng":-87.744698,"sourceStopCount":1},{"id":"gtfs/station/40490","name":"Grand (Blue)","lat":41.891189,"lng":-87.647578,"sourceStopCount":1},{"id":"gtfs/station/40510","name":"Garfield (Green)","lat":41.795172,"lng":-87.618327,"sourceStopCount":1},{"id":"gtfs/station/40520","name":"Foster","lat":42.05416,"lng":-87.68356,"sourceStopCount":1},{"id":"gtfs/station/40530","name":"Diversey (Brown/Purple)","lat":41.932732,"lng":-87.653131,"sourceStopCount":1},{"id":"gtfs/station/40540","name":"Wilson","lat":41.964273,"lng":-87.657588,"sourceStopCount":1},{"id":"gtfs/station/40550","name":"Irving Park (Blue)","lat":41.952925,"lng":-87.729229,"sourceStopCount":1},{"id":"gtfs/station/40560","name":"Jackson (Red)","lat":41.878153,"lng":-87.627596,"sourceStopCount":1},{"id":"gtfs/station/40570","name":"California (Blue)","lat":41.921939,"lng":-87.69689,"sourceStopCount":1},{"id":"gtfs/station/40580","name":"54th/Cermak","lat":41.85177331,"lng":-87.75669201,"sourceStopCount":1},{"id":"gtfs/station/40590","name":"Damen (Blue)","lat":41.909744,"lng":-87.677437,"sourceStopCount":1},{"id":"gtfs/station/40600","name":"Kostner","lat":41.853751,"lng":-87.733258,"sourceStopCount":1},{"id":"gtfs/station/40610","name":"Ridgeland","lat":41.887159,"lng":-87.783661,"sourceStopCount":1},{"id":"gtfs/station/40630","name":"Clark/Division","lat":41.90392,"lng":-87.631412,"sourceStopCount":1},{"id":"gtfs/station/40650","name":"North/Clybourn","lat":41.910655,"lng":-87.649177,"sourceStopCount":1},{"id":"gtfs/station/40660","name":"Armitage (Brown/Purple)","lat":41.918217,"lng":-87.652644,"sourceStopCount":1},{"id":"gtfs/station/40670","name":"Western (Blue - O'Hare Branch)","lat":41.916157,"lng":-87.687364,"sourceStopCount":1},{"id":"gtfs/station/40680","name":"Adams/Wabash","lat":41.879507,"lng":-87.626037,"sourceStopCount":1},{"id":"gtfs/station/40690","name":"Dempster","lat":42.041655,"lng":-87.681602,"sourceStopCount":1},{"id":"gtfs/station/40700","name":"Laramie","lat":41.887163,"lng":-87.754986,"sourceStopCount":1},{"id":"gtfs/station/40710","name":"Chicago (Brown/Purple)","lat":41.89681,"lng":-87.635924,"sourceStopCount":1},{"id":"gtfs/station/40720","name":"Cottage Grove","lat":41.780309,"lng":-87.605857,"sourceStopCount":1},{"id":"gtfs/station/40730","name":"Washington/Wells","lat":41.882695,"lng":-87.63378,"sourceStopCount":1},{"id":"gtfs/station/40740","name":"Western (Pink)","lat":41.854225,"lng":-87.685129,"sourceStopCount":1},{"id":"gtfs/station/40750","name":"Harlem (Blue - O'Hare Branch)","lat":41.98227,"lng":-87.8089,"sourceStopCount":1},{"id":"gtfs/station/40760","name":"Granville","lat":41.993664,"lng":-87.659202,"sourceStopCount":1},{"id":"gtfs/station/40770","name":"Lawrence","lat":41.969139,"lng":-87.658493,"sourceStopCount":1},{"id":"gtfs/station/40780","name":"Central Park","lat":41.853839,"lng":-87.714842,"sourceStopCount":1},{"id":"gtfs/station/40790","name":"Monroe (Blue)","lat":41.880703,"lng":-87.629378,"sourceStopCount":1},{"id":"gtfs/station/40800","name":"Sedgwick (Brown/Purple)","lat":41.910409,"lng":-87.639302,"sourceStopCount":1},{"id":"gtfs/station/40810","name":"Illinois Medical District","lat":41.875706,"lng":-87.673932,"sourceStopCount":1},{"id":"gtfs/station/40820","name":"Rosemont","lat":41.983507,"lng":-87.859388,"sourceStopCount":1},{"id":"gtfs/station/40830","name":"18th","lat":41.857908,"lng":-87.669147,"sourceStopCount":1},{"id":"gtfs/station/40840","name":"South Boulevard","lat":42.027612,"lng":-87.678329,"sourceStopCount":1},{"id":"gtfs/station/40850","name":"Harold Washington Library-State/Van Buren","lat":41.876862,"lng":-87.628196,"sourceStopCount":1},{"id":"gtfs/station/40870","name":"Francisco","lat":41.966046,"lng":-87.701644,"sourceStopCount":1},{"id":"gtfs/station/40880","name":"Thorndale","lat":41.990259,"lng":-87.659076,"sourceStopCount":1},{"id":"gtfs/station/40890","name":"O'Hare","lat":41.97766526,"lng":-87.90422307,"sourceStopCount":1},{"id":"gtfs/station/40900","name":"Howard","lat":42.019063,"lng":-87.672892,"sourceStopCount":1},{"id":"gtfs/station/40910","name":"63rd","lat":41.780536,"lng":-87.630952,"sourceStopCount":1},{"id":"gtfs/station/40920","name":"Pulaski (Blue)","lat":41.873797,"lng":-87.725663,"sourceStopCount":1},{"id":"gtfs/station/40930","name":"Midway","lat":41.78661,"lng":-87.737875,"sourceStopCount":1},{"id":"gtfs/station/40940","name":"Halsted (Green)","lat":41.778943,"lng":-87.644244,"sourceStopCount":1},{"id":"gtfs/station/40960","name":"Pulaski (Orange)","lat":41.799756,"lng":-87.724493,"sourceStopCount":1},{"id":"gtfs/station/40970","name":"Cicero (Blue)","lat":41.871574,"lng":-87.745154,"sourceStopCount":1},{"id":"gtfs/station/40980","name":"Harlem (Blue - Forest Park Branch)","lat":41.87349,"lng":-87.806961,"sourceStopCount":1},{"id":"gtfs/station/40990","name":"69th","lat":41.768367,"lng":-87.625724,"sourceStopCount":1},{"id":"gtfs/station/41000","name":"Cermak-Chinatown","lat":41.853206,"lng":-87.630968,"sourceStopCount":1},{"id":"gtfs/station/41010","name":"Rockwell","lat":41.966115,"lng":-87.6941,"sourceStopCount":1},{"id":"gtfs/station/41020","name":"Logan Square","lat":41.929728,"lng":-87.708541,"sourceStopCount":1},{"id":"gtfs/station/41030","name":"Polk","lat":41.871551,"lng":-87.66953,"sourceStopCount":1},{"id":"gtfs/station/41040","name":"Kedzie (Pink)","lat":41.853964,"lng":-87.705408,"sourceStopCount":1},{"id":"gtfs/station/41050","name":"Linden","lat":42.073153,"lng":-87.69073,"sourceStopCount":1},{"id":"gtfs/station/41060","name":"Ashland (Orange)","lat":41.839234,"lng":-87.665317,"sourceStopCount":1},{"id":"gtfs/station/41070","name":"Kedzie (Green)","lat":41.884321,"lng":-87.706155,"sourceStopCount":1},{"id":"gtfs/station/41080","name":"47th (Green)","lat":41.809209,"lng":-87.618826,"sourceStopCount":1},{"id":"gtfs/station/41090","name":"Monroe (Red)","lat":41.880745,"lng":-87.627696,"sourceStopCount":1},{"id":"gtfs/station/41120","name":"35th-Bronzeville-IIT","lat":41.831677,"lng":-87.625826,"sourceStopCount":1},{"id":"gtfs/station/41130","name":"Halsted (Orange)","lat":41.84678,"lng":-87.648088,"sourceStopCount":1},{"id":"gtfs/station/41140","name":"King Drive","lat":41.78013,"lng":-87.615546,"sourceStopCount":1},{"id":"gtfs/station/41150","name":"Kedzie (Orange)","lat":41.804236,"lng":-87.704406,"sourceStopCount":1},{"id":"gtfs/station/41160","name":"Clinton (Green/Pink)","lat":41.885678,"lng":-87.641782,"sourceStopCount":1},{"id":"gtfs/station/41170","name":"Garfield (Red)","lat":41.79542,"lng":-87.631157,"sourceStopCount":1},{"id":"gtfs/station/41180","name":"Kedzie (Brown)","lat":41.965996,"lng":-87.708821,"sourceStopCount":1},{"id":"gtfs/station/41190","name":"Jarvis","lat":42.015876,"lng":-87.669092,"sourceStopCount":1},{"id":"gtfs/station/41200","name":"Argyle","lat":41.973453,"lng":-87.65853,"sourceStopCount":1},{"id":"gtfs/station/41210","name":"Wellington (Brown/Purple)","lat":41.936033,"lng":-87.653266,"sourceStopCount":1},{"id":"gtfs/station/41220","name":"Fullerton","lat":41.925051,"lng":-87.652866,"sourceStopCount":1},{"id":"gtfs/station/41230","name":"47th (Red)","lat":41.810318,"lng":-87.63094,"sourceStopCount":1},{"id":"gtfs/station/41240","name":"Addison (Blue)","lat":41.94738,"lng":-87.71906,"sourceStopCount":1},{"id":"gtfs/station/41250","name":"Central (Purple)","lat":42.063987,"lng":-87.685617,"sourceStopCount":1},{"id":"gtfs/station/41260","name":"Austin (Green)","lat":41.887293,"lng":-87.774135,"sourceStopCount":1},{"id":"gtfs/station/41270","name":"43rd","lat":41.816462,"lng":-87.619021,"sourceStopCount":1},{"id":"gtfs/station/41280","name":"Jefferson Park Transit Center","lat":41.970634,"lng":-87.760892,"sourceStopCount":1},{"id":"gtfs/station/41290","name":"Kimball","lat":41.967901,"lng":-87.713065,"sourceStopCount":1},{"id":"gtfs/station/41300","name":"Loyola","lat":42.001073,"lng":-87.661061,"sourceStopCount":1},{"id":"gtfs/station/41310","name":"Paulina","lat":41.943623,"lng":-87.670907,"sourceStopCount":1},{"id":"gtfs/station/41320","name":"Belmont (Red/Brown/Purple)","lat":41.939751,"lng":-87.65338,"sourceStopCount":1},{"id":"gtfs/station/41330","name":"Montrose (Blue)","lat":41.961539,"lng":-87.743574,"sourceStopCount":1},{"id":"gtfs/station/41340","name":"LaSalle","lat":41.875568,"lng":-87.631722,"sourceStopCount":1},{"id":"gtfs/station/41350","name":"Oak Park (Green)","lat":41.886988,"lng":-87.793783,"sourceStopCount":1},{"id":"gtfs/station/41360","name":"California (Green)","lat":41.88422,"lng":-87.696234,"sourceStopCount":1},{"id":"gtfs/station/41380","name":"Bryn Mawr","lat":41.983504,"lng":-87.65884,"sourceStopCount":1},{"id":"gtfs/station/41400","name":"Roosevelt","lat":41.867386499999995,"lng":-87.62699599999999,"sourceStopCount":2},{"id":"gtfs/station/41410","name":"Chicago (Blue)","lat":41.896075,"lng":-87.655214,"sourceStopCount":1},{"id":"gtfs/station/41420","name":"Addison (Red)","lat":41.947428,"lng":-87.653626,"sourceStopCount":1},{"id":"gtfs/station/41430","name":"87th","lat":41.735372,"lng":-87.624717,"sourceStopCount":1},{"id":"gtfs/station/41440","name":"Addison (Brown)","lat":41.947028,"lng":-87.674642,"sourceStopCount":1},{"id":"gtfs/station/41450","name":"Chicago (Red)","lat":41.896671,"lng":-87.628176,"sourceStopCount":1},{"id":"gtfs/station/41460","name":"Irving Park (Brown)","lat":41.954521,"lng":-87.674868,"sourceStopCount":1},{"id":"gtfs/station/41480","name":"Western (Brown)","lat":41.966163,"lng":-87.688502,"sourceStopCount":1},{"id":"gtfs/station/41490","name":"Harrison","lat":41.874039,"lng":-87.627479,"sourceStopCount":1},{"id":"gtfs/station/41500","name":"Montrose (Brown)","lat":41.961756,"lng":-87.675047,"sourceStopCount":1},{"id":"gtfs/station/41510","name":"Morgan (Green/Pink)","lat":41.88557676,"lng":-87.65212993,"sourceStopCount":1},{"id":"gtfs/station/41660","name":"Lake (Subway)","lat":41.884809,"lng":-87.627813,"sourceStopCount":1},{"id":"gtfs/station/41670","name":"Conservatory-Central Park Drive","lat":41.884904,"lng":-87.716523,"sourceStopCount":1},{"id":"gtfs/station/41680","name":"Oakton-Skokie","lat":42.02624348,"lng":-87.74722084,"sourceStopCount":1},{"id":"gtfs/station/41690","name":"Cermak-McCormick Place","lat":41.853115,"lng":-87.626402,"sourceStopCount":1},{"id":"gtfs/station/41700","name":"Washington/Wabash","lat":41.88322,"lng":-87.626189,"sourceStopCount":1},{"id":"gtfs/station/41710","name":"Damen (Green)","lat":41.88497405,"lng":-87.67689149,"sourceStopCount":1}],"railNodes":[{"id":"gtfs/station/40010","name":"Austin (Blue)","lat":41.870851,"lng":-87.776812,"sourceStopCount":1},{"id":"gtfs/station/40020","name":"Harlem/Lake","lat":41.886848,"lng":-87.803176,"sourceStopCount":1},{"id":"gtfs/station/40030","name":"Pulaski (Green)","lat":41.885412,"lng":-87.725404,"sourceStopCount":1},{"id":"gtfs/station/40040","name":"Quincy","lat":41.878723,"lng":-87.63374,"sourceStopCount":1},{"id":"gtfs/station/40050","name":"Davis","lat":42.04771,"lng":-87.683543,"sourceStopCount":1},{"id":"gtfs/station/40060","name":"Belmont (Blue)","lat":41.938132,"lng":-87.712359,"sourceStopCount":1},{"id":"gtfs/station/40070","name":"Jackson (Blue)","lat":41.878183,"lng":-87.629296,"sourceStopCount":1},{"id":"gtfs/station/40080","name":"Sheridan","lat":41.953775,"lng":-87.654929,"sourceStopCount":1},{"id":"gtfs/station/40090","name":"Damen (Brown)","lat":41.966286,"lng":-87.678639,"sourceStopCount":1},{"id":"gtfs/station/40100","name":"Morse","lat":42.008362,"lng":-87.665909,"sourceStopCount":1},{"id":"gtfs/station/40120","name":"35th/Archer","lat":41.829353,"lng":-87.680622,"sourceStopCount":1},{"id":"gtfs/station/40130","name":"51st","lat":41.80209,"lng":-87.618487,"sourceStopCount":1},{"id":"gtfs/station/40140","name":"Dempster-Skokie","lat":42.038951,"lng":-87.751919,"sourceStopCount":1},{"id":"gtfs/station/40150","name":"Pulaski (Pink)","lat":41.853732,"lng":-87.724311,"sourceStopCount":1},{"id":"gtfs/station/40160","name":"LaSalle/Van Buren","lat":41.8768,"lng":-87.631739,"sourceStopCount":1},{"id":"gtfs/station/40170","name":"Ashland (Green/Pink)","lat":41.885269,"lng":-87.666969,"sourceStopCount":1},{"id":"gtfs/station/40180","name":"Oak Park (Blue)","lat":41.872108,"lng":-87.791602,"sourceStopCount":1},{"id":"gtfs/station/40190","name":"Sox-35th","lat":41.831191,"lng":-87.630636,"sourceStopCount":1},{"id":"gtfs/station/40210","name":"Damen (Pink)","lat":41.854517,"lng":-87.675975,"sourceStopCount":1},{"id":"gtfs/station/40220","name":"Western (Blue - Forest Park Branch)","lat":41.875478,"lng":-87.688436,"sourceStopCount":1},{"id":"gtfs/station/40230","name":"Cumberland","lat":41.984246,"lng":-87.838028,"sourceStopCount":1},{"id":"gtfs/station/40240","name":"79th","lat":41.750419,"lng":-87.625112,"sourceStopCount":1},{"id":"gtfs/station/40250","name":"Kedzie-Homan","lat":41.874341,"lng":-87.70604,"sourceStopCount":1},{"id":"gtfs/station/40270","name":"Main","lat":42.033456,"lng":-87.679538,"sourceStopCount":1},{"id":"gtfs/station/40280","name":"Central (Green)","lat":41.887389,"lng":-87.76565,"sourceStopCount":1},{"id":"gtfs/station/40290","name":"Ashland/63rd","lat":41.77886,"lng":-87.663766,"sourceStopCount":1},{"id":"gtfs/station/40300","name":"Indiana","lat":41.821732,"lng":-87.621371,"sourceStopCount":1},{"id":"gtfs/station/40310","name":"Western (Orange)","lat":41.804546,"lng":-87.684019,"sourceStopCount":1},{"id":"gtfs/station/40320","name":"Division","lat":41.903355,"lng":-87.666496,"sourceStopCount":1},{"id":"gtfs/station/40330","name":"Grand (Red)","lat":41.891665,"lng":-87.628021,"sourceStopCount":1},{"id":"gtfs/station/40340","name":"Berwyn","lat":41.977984,"lng":-87.658668,"sourceStopCount":1},{"id":"gtfs/station/40350","name":"UIC-Halsted","lat":41.875474,"lng":-87.649707,"sourceStopCount":1},{"id":"gtfs/station/40360","name":"Southport","lat":41.943744,"lng":-87.663619,"sourceStopCount":1},{"id":"gtfs/station/40370","name":"Washington","lat":41.883164,"lng":-87.62944,"sourceStopCount":1},{"id":"gtfs/station/40380","name":"Clark/Lake","lat":41.885737,"lng":-87.630886,"sourceStopCount":1},{"id":"gtfs/station/40390","name":"Forest Park","lat":41.874257,"lng":-87.817318,"sourceStopCount":1},{"id":"gtfs/station/40400","name":"Noyes","lat":42.058282,"lng":-87.683337,"sourceStopCount":1},{"id":"gtfs/station/40420","name":"Cicero (Pink)","lat":41.85182,"lng":-87.745336,"sourceStopCount":1},{"id":"gtfs/station/40430","name":"Clinton (Blue)","lat":41.875539,"lng":-87.640984,"sourceStopCount":1},{"id":"gtfs/station/40440","name":"California (Pink)","lat":41.854109,"lng":-87.694774,"sourceStopCount":1},{"id":"gtfs/station/40450","name":"95th/Dan Ryan","lat":41.722377,"lng":-87.624342,"sourceStopCount":1},{"id":"gtfs/station/40460","name":"Merchandise Mart (Brown/Purple)","lat":41.888969,"lng":-87.633924,"sourceStopCount":1},{"id":"gtfs/station/40470","name":"Racine","lat":41.87592,"lng":-87.659458,"sourceStopCount":1},{"id":"gtfs/station/40480","name":"Cicero (Green)","lat":41.886519,"lng":-87.744698,"sourceStopCount":1},{"id":"gtfs/station/40490","name":"Grand (Blue)","lat":41.891189,"lng":-87.647578,"sourceStopCount":1},{"id":"gtfs/station/40510","name":"Garfield (Green)","lat":41.795172,"lng":-87.618327,"sourceStopCount":1},{"id":"gtfs/station/40520","name":"Foster","lat":42.05416,"lng":-87.68356,"sourceStopCount":1},{"id":"gtfs/station/40530","name":"Diversey (Brown/Purple)","lat":41.932732,"lng":-87.653131,"sourceStopCount":1},{"id":"gtfs/station/40540","name":"Wilson","lat":41.964273,"lng":-87.657588,"sourceStopCount":1},{"id":"gtfs/station/40550","name":"Irving Park (Blue)","lat":41.952925,"lng":-87.729229,"sourceStopCount":1},{"id":"gtfs/station/40560","name":"Jackson (Red)","lat":41.878153,"lng":-87.627596,"sourceStopCount":1},{"id":"gtfs/station/40570","name":"California (Blue)","lat":41.921939,"lng":-87.69689,"sourceStopCount":1},{"id":"gtfs/station/40580","name":"54th/Cermak","lat":41.85177331,"lng":-87.75669201,"sourceStopCount":1},{"id":"gtfs/station/40590","name":"Damen (Blue)","lat":41.909744,"lng":-87.677437,"sourceStopCount":1},{"id":"gtfs/station/40600","name":"Kostner","lat":41.853751,"lng":-87.733258,"sourceStopCount":1},{"id":"gtfs/station/40610","name":"Ridgeland","lat":41.887159,"lng":-87.783661,"sourceStopCount":1},{"id":"gtfs/station/40630","name":"Clark/Division","lat":41.90392,"lng":-87.631412,"sourceStopCount":1},{"id":"gtfs/station/40650","name":"North/Clybourn","lat":41.910655,"lng":-87.649177,"sourceStopCount":1},{"id":"gtfs/station/40660","name":"Armitage (Brown/Purple)","lat":41.918217,"lng":-87.652644,"sourceStopCount":1},{"id":"gtfs/station/40670","name":"Western (Blue - O'Hare Branch)","lat":41.916157,"lng":-87.687364,"sourceStopCount":1},{"id":"gtfs/station/40680","name":"Adams/Wabash","lat":41.879507,"lng":-87.626037,"sourceStopCount":1},{"id":"gtfs/station/40690","name":"Dempster","lat":42.041655,"lng":-87.681602,"sourceStopCount":1},{"id":"gtfs/station/40700","name":"Laramie","lat":41.887163,"lng":-87.754986,"sourceStopCount":1},{"id":"gtfs/station/40710","name":"Chicago (Brown/Purple)","lat":41.89681,"lng":-87.635924,"sourceStopCount":1},{"id":"gtfs/station/40720","name":"Cottage Grove","lat":41.780309,"lng":-87.605857,"sourceStopCount":1},{"id":"gtfs/station/40730","name":"Washington/Wells","lat":41.882695,"lng":-87.63378,"sourceStopCount":1},{"id":"gtfs/station/40740","name":"Western (Pink)","lat":41.854225,"lng":-87.685129,"sourceStopCount":1},{"id":"gtfs/station/40750","name":"Harlem (Blue - O'Hare Branch)","lat":41.98227,"lng":-87.8089,"sourceStopCount":1},{"id":"gtfs/station/40760","name":"Granville","lat":41.993664,"lng":-87.659202,"sourceStopCount":1},{"id":"gtfs/station/40770","name":"Lawrence","lat":41.969139,"lng":-87.658493,"sourceStopCount":1},{"id":"gtfs/station/40780","name":"Central Park","lat":41.853839,"lng":-87.714842,"sourceStopCount":1},{"id":"gtfs/station/40790","name":"Monroe (Blue)","lat":41.880703,"lng":-87.629378,"sourceStopCount":1},{"id":"gtfs/station/40800","name":"Sedgwick (Brown/Purple)","lat":41.910409,"lng":-87.639302,"sourceStopCount":1},{"id":"gtfs/station/40810","name":"Illinois Medical District","lat":41.875706,"lng":-87.673932,"sourceStopCount":1},{"id":"gtfs/station/40820","name":"Rosemont","lat":41.983507,"lng":-87.859388,"sourceStopCount":1},{"id":"gtfs/station/40830","name":"18th","lat":41.857908,"lng":-87.669147,"sourceStopCount":1},{"id":"gtfs/station/40840","name":"South Boulevard","lat":42.027612,"lng":-87.678329,"sourceStopCount":1},{"id":"gtfs/station/40850","name":"Harold Washington Library-State/Van Buren","lat":41.876862,"lng":-87.628196,"sourceStopCount":1},{"id":"gtfs/station/40870","name":"Francisco","lat":41.966046,"lng":-87.701644,"sourceStopCount":1},{"id":"gtfs/station/40880","name":"Thorndale","lat":41.990259,"lng":-87.659076,"sourceStopCount":1},{"id":"gtfs/station/40890","name":"O'Hare","lat":41.97766526,"lng":-87.90422307,"sourceStopCount":1},{"id":"gtfs/station/40900","name":"Howard","lat":42.019063,"lng":-87.672892,"sourceStopCount":1},{"id":"gtfs/station/40910","name":"63rd","lat":41.780536,"lng":-87.630952,"sourceStopCount":1},{"id":"gtfs/station/40920","name":"Pulaski (Blue)","lat":41.873797,"lng":-87.725663,"sourceStopCount":1},{"id":"gtfs/station/40930","name":"Midway","lat":41.78661,"lng":-87.737875,"sourceStopCount":1},{"id":"gtfs/station/40940","name":"Halsted (Green)","lat":41.778943,"lng":-87.644244,"sourceStopCount":1},{"id":"gtfs/station/40960","name":"Pulaski (Orange)","lat":41.799756,"lng":-87.724493,"sourceStopCount":1},{"id":"gtfs/station/40970","name":"Cicero (Blue)","lat":41.871574,"lng":-87.745154,"sourceStopCount":1},{"id":"gtfs/station/40980","name":"Harlem (Blue - Forest Park Branch)","lat":41.87349,"lng":-87.806961,"sourceStopCount":1},{"id":"gtfs/station/40990","name":"69th","lat":41.768367,"lng":-87.625724,"sourceStopCount":1},{"id":"gtfs/station/41000","name":"Cermak-Chinatown","lat":41.853206,"lng":-87.630968,"sourceStopCount":1},{"id":"gtfs/station/41010","name":"Rockwell","lat":41.966115,"lng":-87.6941,"sourceStopCount":1},{"id":"gtfs/station/41020","name":"Logan Square","lat":41.929728,"lng":-87.708541,"sourceStopCount":1},{"id":"gtfs/station/41030","name":"Polk","lat":41.871551,"lng":-87.66953,"sourceStopCount":1},{"id":"gtfs/station/41040","name":"Kedzie (Pink)","lat":41.853964,"lng":-87.705408,"sourceStopCount":1},{"id":"gtfs/station/41050","name":"Linden","lat":42.073153,"lng":-87.69073,"sourceStopCount":1},{"id":"gtfs/station/41060","name":"Ashland (Orange)","lat":41.839234,"lng":-87.665317,"sourceStopCount":1},{"id":"gtfs/station/41070","name":"Kedzie (Green)","lat":41.884321,"lng":-87.706155,"sourceStopCount":1},{"id":"gtfs/station/41080","name":"47th (Green)","lat":41.809209,"lng":-87.618826,"sourceStopCount":1},{"id":"gtfs/station/41090","name":"Monroe (Red)","lat":41.880745,"lng":-87.627696,"sourceStopCount":1},{"id":"gtfs/station/41120","name":"35th-Bronzeville-IIT","lat":41.831677,"lng":-87.625826,"sourceStopCount":1},{"id":"gtfs/station/41130","name":"Halsted (Orange)","lat":41.84678,"lng":-87.648088,"sourceStopCount":1},{"id":"gtfs/station/41140","name":"King Drive","lat":41.78013,"lng":-87.615546,"sourceStopCount":1},{"id":"gtfs/station/41150","name":"Kedzie (Orange)","lat":41.804236,"lng":-87.704406,"sourceStopCount":1},{"id":"gtfs/station/41160","name":"Clinton (Green/Pink)","lat":41.885678,"lng":-87.641782,"sourceStopCount":1},{"id":"gtfs/station/41170","name":"Garfield (Red)","lat":41.79542,"lng":-87.631157,"sourceStopCount":1},{"id":"gtfs/station/41180","name":"Kedzie (Brown)","lat":41.965996,"lng":-87.708821,"sourceStopCount":1},{"id":"gtfs/station/41190","name":"Jarvis","lat":42.015876,"lng":-87.669092,"sourceStopCount":1},{"id":"gtfs/station/41200","name":"Argyle","lat":41.973453,"lng":-87.65853,"sourceStopCount":1},{"id":"gtfs/station/41210","name":"Wellington (Brown/Purple)","lat":41.936033,"lng":-87.653266,"sourceStopCount":1},{"id":"gtfs/station/41220","name":"Fullerton","lat":41.925051,"lng":-87.652866,"sourceStopCount":1},{"id":"gtfs/station/41230","name":"47th (Red)","lat":41.810318,"lng":-87.63094,"sourceStopCount":1},{"id":"gtfs/station/41240","name":"Addison (Blue)","lat":41.94738,"lng":-87.71906,"sourceStopCount":1},{"id":"gtfs/station/41250","name":"Central (Purple)","lat":42.063987,"lng":-87.685617,"sourceStopCount":1},{"id":"gtfs/station/41260","name":"Austin (Green)","lat":41.887293,"lng":-87.774135,"sourceStopCount":1},{"id":"gtfs/station/41270","name":"43rd","lat":41.816462,"lng":-87.619021,"sourceStopCount":1},{"id":"gtfs/station/41280","name":"Jefferson Park Transit Center","lat":41.970634,"lng":-87.760892,"sourceStopCount":1},{"id":"gtfs/station/41290","name":"Kimball","lat":41.967901,"lng":-87.713065,"sourceStopCount":1},{"id":"gtfs/station/41300","name":"Loyola","lat":42.001073,"lng":-87.661061,"sourceStopCount":1},{"id":"gtfs/station/41310","name":"Paulina","lat":41.943623,"lng":-87.670907,"sourceStopCount":1},{"id":"gtfs/station/41320","name":"Belmont (Red/Brown/Purple)","lat":41.939751,"lng":-87.65338,"sourceStopCount":1},{"id":"gtfs/station/41330","name":"Montrose (Blue)","lat":41.961539,"lng":-87.743574,"sourceStopCount":1},{"id":"gtfs/station/41340","name":"LaSalle","lat":41.875568,"lng":-87.631722,"sourceStopCount":1},{"id":"gtfs/station/41350","name":"Oak Park (Green)","lat":41.886988,"lng":-87.793783,"sourceStopCount":1},{"id":"gtfs/station/41360","name":"California (Green)","lat":41.88422,"lng":-87.696234,"sourceStopCount":1},{"id":"gtfs/station/41380","name":"Bryn Mawr","lat":41.983504,"lng":-87.65884,"sourceStopCount":1},{"id":"gtfs/station/41400","name":"Roosevelt","lat":41.867386499999995,"lng":-87.62699599999999,"sourceStopCount":2},{"id":"gtfs/station/41410","name":"Chicago (Blue)","lat":41.896075,"lng":-87.655214,"sourceStopCount":1},{"id":"gtfs/station/41420","name":"Addison (Red)","lat":41.947428,"lng":-87.653626,"sourceStopCount":1},{"id":"gtfs/station/41430","name":"87th","lat":41.735372,"lng":-87.624717,"sourceStopCount":1},{"id":"gtfs/station/41440","name":"Addison (Brown)","lat":41.947028,"lng":-87.674642,"sourceStopCount":1},{"id":"gtfs/station/41450","name":"Chicago (Red)","lat":41.896671,"lng":-87.628176,"sourceStopCount":1},{"id":"gtfs/station/41460","name":"Irving Park (Brown)","lat":41.954521,"lng":-87.674868,"sourceStopCount":1},{"id":"gtfs/station/41480","name":"Western (Brown)","lat":41.966163,"lng":-87.688502,"sourceStopCount":1},{"id":"gtfs/station/41490","name":"Harrison","lat":41.874039,"lng":-87.627479,"sourceStopCount":1},{"id":"gtfs/station/41500","name":"Montrose (Brown)","lat":41.961756,"lng":-87.675047,"sourceStopCount":1},{"id":"gtfs/station/41510","name":"Morgan (Green/Pink)","lat":41.88557676,"lng":-87.65212993,"sourceStopCount":1},{"id":"gtfs/station/41660","name":"Lake (Subway)","lat":41.884809,"lng":-87.627813,"sourceStopCount":1},{"id":"gtfs/station/41670","name":"Conservatory-Central Park Drive","lat":41.884904,"lng":-87.716523,"sourceStopCount":1},{"id":"gtfs/station/41680","name":"Oakton-Skokie","lat":42.02624348,"lng":-87.74722084,"sourceStopCount":1},{"id":"gtfs/station/41690","name":"Cermak-McCormick Place","lat":41.853115,"lng":-87.626402,"sourceStopCount":1},{"id":"gtfs/station/41700","name":"Washington/Wabash","lat":41.88322,"lng":-87.626189,"sourceStopCount":1},{"id":"gtfs/station/41710","name":"Damen (Green)","lat":41.88497405,"lng":-87.67689149,"sourceStopCount":1}],"railWays":[{"id":"gtfs/route/Blue/0/0","routeId":"Blue","name":"Blue Line direction 0","color":"#00A1DE","nodes":["gtfs/station/40820","gtfs/station/40230","gtfs/station/40750","gtfs/station/41280","gtfs/station/41330","gtfs/station/40550","gtfs/station/41240","gtfs/station/40060","gtfs/station/41020","gtfs/station/40570","gtfs/station/40670","gtfs/station/40590","gtfs/station/40320","gtfs/station/41410","gtfs/station/40490","gtfs/station/40380","gtfs/station/40370","gtfs/station/40790","gtfs/station/40070","gtfs/station/41340","gtfs/station/40430","gtfs/station/40350","gtfs/station/40470","gtfs/station/40810","gtfs/station/40220","gtfs/station/40250","gtfs/station/40920","gtfs/station/40970","gtfs/station/40010","gtfs/station/40180","gtfs/station/40980","gtfs/station/40390"],"segmentWeights":[1772.42,2442.06,4387.3,1765.71,1531.32,1042.78,1227.13,1071.38,1300.89,1018.04,1089.06,1156.42,1236.88,834.55,1626.42,391.37,273.72,280.3,478.54,768.71,722.27,816.87,1203.36,1202.44,1465.79,1634.04,1674.58,2662.43,1237.49,1284.13,877.52]},{"id":"gtfs/route/Blue/0/1","routeId":"Blue","name":"Blue Line direction 0","color":"#00A1DE","nodes":["gtfs/station/40890","gtfs/station/40820","gtfs/station/40230","gtfs/station/40750","gtfs/station/41280","gtfs/station/41330","gtfs/station/40550","gtfs/station/41240","gtfs/station/40060","gtfs/station/41020","gtfs/station/40570","gtfs/station/40670","gtfs/station/40590","gtfs/station/40320","gtfs/station/41410","gtfs/station/40490","gtfs/station/40380","gtfs/station/40370","gtfs/station/40790","gtfs/station/40070","gtfs/station/41340","gtfs/station/40430","gtfs/station/40350"],"segmentWeights":[4315.36,1772.42,2442.06,4387.3,1765.71,1531.32,1042.78,1227.13,1071.38,1300.89,1018.04,1089.06,1156.42,1236.88,834.55,1626.42,391.37,273.72,280.3,478.54,768.71,722.27]},{"id":"gtfs/route/Blue/0/2","routeId":"Blue","name":"Blue Line direction 0","color":"#00A1DE","nodes":["gtfs/station/40890","gtfs/station/40820","gtfs/station/40230","gtfs/station/40750","gtfs/station/41280","gtfs/station/41330","gtfs/station/40550","gtfs/station/41240","gtfs/station/40060","gtfs/station/41020","gtfs/station/40570","gtfs/station/40670","gtfs/station/40590","gtfs/station/40320","gtfs/station/41410","gtfs/station/40490","gtfs/station/40380","gtfs/station/40370","gtfs/station/40790","gtfs/station/40070","gtfs/station/41340","gtfs/station/40430","gtfs/station/40350","gtfs/station/40470","gtfs/station/40810","gtfs/station/40220","gtfs/station/40250","gtfs/station/40920","gtfs/station/40970","gtfs/station/40010","gtfs/station/40180","gtfs/station/40980","gtfs/station/40390"],"segmentWeights":[4315.36,1772.42,2442.06,4387.3,1765.71,1531.32,1042.78,1227.13,1071.38,1300.89,1018.04,1089.06,1156.42,1236.88,834.55,1626.42,391.37,273.72,280.3,478.54,768.71,722.27,816.87,1203.36,1202.44,1465.79,1634.04,1674.58,2662.43,1237.49,1284.13,877.52]},{"id":"gtfs/route/Blue/0/3","routeId":"Blue","name":"Blue Line direction 0","color":"#00A1DE","nodes":["gtfs/station/41280","gtfs/station/41330","gtfs/station/40550","gtfs/station/41240","gtfs/station/40060","gtfs/station/41020","gtfs/station/40570","gtfs/station/40670","gtfs/station/40590","gtfs/station/40320","gtfs/station/41410","gtfs/station/40490","gtfs/station/40380","gtfs/station/40370","gtfs/station/40790","gtfs/station/40070","gtfs/station/41340","gtfs/station/40430","gtfs/station/40350","gtfs/station/40470"],"segmentWeights":[1765.71,1531.32,1042.78,1227.13,1071.38,1300.89,1018.04,1089.06,1156.42,1236.88,834.55,1626.42,391.37,273.72,280.3,478.54,768.71,722.27,816.87]},{"id":"gtfs/route/Blue/0/4","routeId":"Blue","name":"Blue Line direction 0","color":"#00A1DE","nodes":["gtfs/station/41280","gtfs/station/41330","gtfs/station/40550","gtfs/station/41240","gtfs/station/40060","gtfs/station/41020","gtfs/station/40570","gtfs/station/40670","gtfs/station/40590","gtfs/station/40320","gtfs/station/41410","gtfs/station/40490","gtfs/station/40380","gtfs/station/40370","gtfs/station/40790","gtfs/station/40070","gtfs/station/41340","gtfs/station/40430","gtfs/station/40350","gtfs/station/40470","gtfs/station/40810","gtfs/station/40220","gtfs/station/40250","gtfs/station/40920","gtfs/station/40970","gtfs/station/40010","gtfs/station/40180","gtfs/station/40980","gtfs/station/40390"],"segmentWeights":[1765.71,1531.32,1042.78,1227.13,1071.38,1300.89,1018.04,1089.06,1156.42,1236.88,834.55,1626.42,391.37,273.72,280.3,478.54,768.71,722.27,816.87,1203.36,1202.44,1465.79,1634.04,1674.58,2662.43,1237.49,1284.13,877.52]},{"id":"gtfs/route/Blue/1/5","routeId":"Blue","name":"Blue Line direction 1","color":"#00A1DE","nodes":["gtfs/station/40350","gtfs/station/40430","gtfs/station/41340","gtfs/station/40070","gtfs/station/40790","gtfs/station/40370","gtfs/station/40380","gtfs/station/40490","gtfs/station/41410","gtfs/station/40320","gtfs/station/40590","gtfs/station/40670","gtfs/station/40570","gtfs/station/41020","gtfs/station/40060","gtfs/station/41240","gtfs/station/40550","gtfs/station/41330","gtfs/station/41280"],"segmentWeights":[722.27,768.71,478.54,280.3,273.72,391.37,1626.42,834.55,1236.88,1156.42,1089.06,1018.04,1300.89,1071.38,1227.13,1042.78,1531.32,1765.71]},{"id":"gtfs/route/Blue/1/6","routeId":"Blue","name":"Blue Line direction 1","color":"#00A1DE","nodes":["gtfs/station/40350","gtfs/station/40430","gtfs/station/41340","gtfs/station/40070","gtfs/station/40790","gtfs/station/40370","gtfs/station/40380","gtfs/station/40490","gtfs/station/41410","gtfs/station/40320","gtfs/station/40590","gtfs/station/40670","gtfs/station/40570","gtfs/station/41020","gtfs/station/40060","gtfs/station/41240","gtfs/station/40550","gtfs/station/41330","gtfs/station/41280","gtfs/station/40750","gtfs/station/40230","gtfs/station/40820","gtfs/station/40890"],"segmentWeights":[722.27,768.71,478.54,280.3,273.72,391.37,1626.42,834.55,1236.88,1156.42,1089.06,1018.04,1300.89,1071.38,1227.13,1042.78,1531.32,1765.71,4387.3,2442.06,1772.42,4315.36]},{"id":"gtfs/route/Blue/1/7","routeId":"Blue","name":"Blue Line direction 1","color":"#00A1DE","nodes":["gtfs/station/40390","gtfs/station/40980","gtfs/station/40180","gtfs/station/40010","gtfs/station/40970","gtfs/station/40920","gtfs/station/40250","gtfs/station/40220","gtfs/station/40810","gtfs/station/40470","gtfs/station/40350","gtfs/station/40430","gtfs/station/41340","gtfs/station/40070","gtfs/station/40790","gtfs/station/40370","gtfs/station/40380","gtfs/station/40490","gtfs/station/41410","gtfs/station/40320","gtfs/station/40590","gtfs/station/40670","gtfs/station/40570","gtfs/station/41020","gtfs/station/40060","gtfs/station/41240","gtfs/station/40550","gtfs/station/41330","gtfs/station/41280","gtfs/station/40750","gtfs/station/40230","gtfs/station/40820","gtfs/station/40890"],"segmentWeights":[877.52,1284.13,1237.49,2662.43,1674.58,1634.04,1465.79,1202.44,1203.36,816.87,722.27,768.71,478.54,280.3,273.72,391.37,1626.42,834.55,1236.88,1156.42,1089.06,1018.04,1300.89,1071.38,1227.13,1042.78,1531.32,1765.71,4387.3,2442.06,1772.42,4315.36]},{"id":"gtfs/route/Blue/1/8","routeId":"Blue","name":"Blue Line direction 1","color":"#00A1DE","nodes":["gtfs/station/40470","gtfs/station/40350","gtfs/station/40430","gtfs/station/41340","gtfs/station/40070","gtfs/station/40790","gtfs/station/40370","gtfs/station/40380","gtfs/station/40490","gtfs/station/41410","gtfs/station/40320","gtfs/station/40590","gtfs/station/40670","gtfs/station/40570","gtfs/station/41020","gtfs/station/40060","gtfs/station/41240","gtfs/station/40550","gtfs/station/41330","gtfs/station/41280"],"segmentWeights":[816.87,722.27,768.71,478.54,280.3,273.72,391.37,1626.42,834.55,1236.88,1156.42,1089.06,1018.04,1300.89,1071.38,1227.13,1042.78,1531.32,1765.71]},{"id":"gtfs/route/Brn/0/9","routeId":"Brn","name":"Brown Line direction 0","color":"#62361B","nodes":["gtfs/station/40680","gtfs/station/41700","gtfs/station/40380","gtfs/station/40460","gtfs/station/40710","gtfs/station/40800","gtfs/station/40660","gtfs/station/41220","gtfs/station/40530","gtfs/station/41210","gtfs/station/41320","gtfs/station/40360","gtfs/station/41310","gtfs/station/41440","gtfs/station/41460","gtfs/station/41500","gtfs/station/40090","gtfs/station/41480","gtfs/station/41010","gtfs/station/40870","gtfs/station/41180","gtfs/station/41290"],"segmentWeights":[413.06,654.72,611.43,944.58,1687.07,1773.33,760.13,854.37,367.23,413.54,1233.53,602.92,617.53,833.4,804.64,722.69,818.39,464.82,626.06,595.58,546.21]},{"id":"gtfs/route/Brn/0/10","routeId":"Brn","name":"Brown Line direction 0","color":"#62361B","nodes":["gtfs/station/41290","gtfs/station/41180","gtfs/station/40870","gtfs/station/41010","gtfs/station/41480","gtfs/station/40090","gtfs/station/41500","gtfs/station/41460","gtfs/station/41440","gtfs/station/41310","gtfs/station/40360","gtfs/station/41320","gtfs/station/41210","gtfs/station/40530","gtfs/station/41220","gtfs/station/40660","gtfs/station/40800","gtfs/station/40710","gtfs/station/40460","gtfs/station/40730","gtfs/station/40040","gtfs/station/40160","gtfs/station/40850"],"segmentWeights":[546.21,595.58,626.06,464.82,818.39,722.69,804.64,833.4,617.53,602.92,1233.53,413.54,367.23,854.37,760.13,1773.33,1687.07,944.58,697.74,441.68,359.06,293.42]},{"id":"gtfs/route/Brn/0/11","routeId":"Brn","name":"Brown Line direction 0","color":"#62361B","nodes":["gtfs/station/41290","gtfs/station/41180","gtfs/station/40870","gtfs/station/41010","gtfs/station/41480","gtfs/station/40090","gtfs/station/41500","gtfs/station/41460","gtfs/station/41440","gtfs/station/41310","gtfs/station/40360","gtfs/station/41320","gtfs/station/41210","gtfs/station/40530","gtfs/station/41220","gtfs/station/40660","gtfs/station/40800","gtfs/station/40710","gtfs/station/40460","gtfs/station/40730","gtfs/station/40040","gtfs/station/40160","gtfs/station/40850","gtfs/station/40680","gtfs/station/41700","gtfs/station/40380","gtfs/station/40460","gtfs/station/40710","gtfs/station/40800","gtfs/station/40660","gtfs/station/41220","gtfs/station/40530","gtfs/station/41210","gtfs/station/41320","gtfs/station/40360","gtfs/station/41310","gtfs/station/41440","gtfs/station/41460","gtfs/station/41500","gtfs/station/40090","gtfs/station/41480","gtfs/station/41010","gtfs/station/40870","gtfs/station/41180","gtfs/station/41290"],"segmentWeights":[546.21,595.58,626.06,464.82,818.39,722.69,804.64,833.4,617.53,602.92,1233.53,413.54,367.23,854.37,760.13,1773.33,1687.07,944.58,697.74,441.68,359.06,293.42,463.61,413.06,654.72,611.43,944.58,1687.07,1773.33,760.13,854.37,367.23,413.54,1233.53,602.92,617.53,833.4,804.64,722.69,818.39,464.82,626.06,595.58,546.21]},{"id":"gtfs/route/G/0/12","routeId":"G","name":"Green Line direction 0","color":"#009B3A","nodes":["gtfs/station/40020","gtfs/station/41350","gtfs/station/40610","gtfs/station/41260","gtfs/station/40280","gtfs/station/40700","gtfs/station/40480","gtfs/station/40030","gtfs/station/41670","gtfs/station/41070","gtfs/station/41360","gtfs/station/41710","gtfs/station/40170","gtfs/station/41510","gtfs/station/41160","gtfs/station/40380","gtfs/station/41700","gtfs/station/40680","gtfs/station/41400","gtfs/station/41690","gtfs/station/41120","gtfs/station/40300","gtfs/station/41270","gtfs/station/41080","gtfs/station/40130","gtfs/station/40510","gtfs/station/40940","gtfs/station/40290"],"segmentWeights":[779.68,840.95,790.96,704.4,889.11,857.1,1606.3,739.14,862.89,825.4,1608.13,825.71,1230.79,860.15,903.43,654.72,413.06,1361.24,1587.69,2384.28,1425.25,762.61,806.66,792.1,769.37,3768.25,1650.8]},{"id":"gtfs/route/G/0/13","routeId":"G","name":"Green Line direction 0","color":"#009B3A","nodes":["gtfs/station/40020","gtfs/station/41350","gtfs/station/40610","gtfs/station/41260","gtfs/station/40280","gtfs/station/40700","gtfs/station/40480","gtfs/station/40030","gtfs/station/41670","gtfs/station/41070","gtfs/station/41360","gtfs/station/41710","gtfs/station/40170","gtfs/station/41510","gtfs/station/41160","gtfs/station/40380","gtfs/station/41700","gtfs/station/40680","gtfs/station/41400","gtfs/station/41690","gtfs/station/41120","gtfs/station/40300","gtfs/station/41270","gtfs/station/41080","gtfs/station/40130","gtfs/station/40510","gtfs/station/41140","gtfs/station/40720"],"segmentWeights":[779.68,840.95,790.96,704.4,889.11,857.1,1606.3,739.14,862.89,825.4,1608.13,825.71,1230.79,860.15,903.43,654.72,413.06,1361.24,1587.69,2384.28,1425.25,762.61,806.66,792.1,769.37,1865.08,805.9]},{"id":"gtfs/route/G/1/14","routeId":"G","name":"Green Line direction 1","color":"#009B3A","nodes":["gtfs/station/40290","gtfs/station/40940","gtfs/station/40510","gtfs/station/40130","gtfs/station/41080","gtfs/station/41270","gtfs/station/40300","gtfs/station/41120","gtfs/station/41690","gtfs/station/41400","gtfs/station/40680","gtfs/station/41700","gtfs/station/40380","gtfs/station/41160","gtfs/station/41510","gtfs/station/40170","gtfs/station/41710","gtfs/station/41360","gtfs/station/41070","gtfs/station/41670","gtfs/station/40030","gtfs/station/40480","gtfs/station/40700","gtfs/station/40280","gtfs/station/41260","gtfs/station/40610","gtfs/station/41350","gtfs/station/40020"],"segmentWeights":[1650.8,3768.25,769.37,792.1,806.66,762.61,1425.25,2384.28,1587.69,1361.24,413.06,654.72,903.43,860.15,1230.79,825.71,1608.13,825.4,862.89,739.14,1606.3,857.1,889.11,704.4,790.96,840.95,779.68]},{"id":"gtfs/route/G/1/15","routeId":"G","name":"Green Line direction 1","color":"#009B3A","nodes":["gtfs/station/40720","gtfs/station/41140","gtfs/station/40510","gtfs/station/40130","gtfs/station/41080","gtfs/station/41270","gtfs/station/40300","gtfs/station/41120","gtfs/station/41690","gtfs/station/41400","gtfs/station/40680","gtfs/station/41700","gtfs/station/40380","gtfs/station/41160","gtfs/station/41510","gtfs/station/40170","gtfs/station/41710","gtfs/station/41360","gtfs/station/41070","gtfs/station/41670","gtfs/station/40030","gtfs/station/40480","gtfs/station/40700","gtfs/station/40280","gtfs/station/41260","gtfs/station/40610","gtfs/station/41350","gtfs/station/40020"],"segmentWeights":[805.9,1865.08,769.37,792.1,806.66,762.61,1425.25,2384.28,1587.69,1361.24,413.06,654.72,903.43,860.15,1230.79,825.71,1608.13,825.4,862.89,739.14,1606.3,857.1,889.11,704.4,790.96,840.95,779.68]},{"id":"gtfs/route/Org/1/16","routeId":"Org","name":"Orange Line direction 1","color":"#F9461C","nodes":["gtfs/station/40930","gtfs/station/40960","gtfs/station/41150","gtfs/station/40310","gtfs/station/40120","gtfs/station/41060","gtfs/station/41130","gtfs/station/41400"],"segmentWeights":[2110.44,1791.31,1690.18,3371.09,1677.8,1659.34,3330.86]},{"id":"gtfs/route/Org/1/17","routeId":"Org","name":"Orange Line direction 1","color":"#F9461C","nodes":["gtfs/station/40930","gtfs/station/40960","gtfs/station/41150","gtfs/station/40310","gtfs/station/40120","gtfs/station/41060","gtfs/station/41130","gtfs/station/41400","gtfs/station/40850","gtfs/station/40160","gtfs/station/40040","gtfs/station/40730","gtfs/station/40380","gtfs/station/41700","gtfs/station/40680","gtfs/station/41400","gtfs/station/41130","gtfs/station/41060","gtfs/station/40120","gtfs/station/40310","gtfs/station/41150","gtfs/station/40960","gtfs/station/40930"],"segmentWeights":[2110.44,1791.31,1690.18,3371.09,1677.8,1659.34,3330.86,1259.13,293.42,359.06,441.68,587.66,654.72,413.06,1361.24,3330.86,1659.34,1677.8,3371.09,1690.18,1791.31,2110.44]},{"id":"gtfs/route/Org/1/18","routeId":"Org","name":"Orange Line direction 1","color":"#F9461C","nodes":["gtfs/station/41400","gtfs/station/41130","gtfs/station/41060","gtfs/station/40120","gtfs/station/40310","gtfs/station/41150","gtfs/station/40960","gtfs/station/40930"],"segmentWeights":[3330.86,1659.34,1677.8,3371.09,1690.18,1791.31,2110.44]},{"id":"gtfs/route/P/1/19","routeId":"P","name":"Purple Line direction 1","color":"#522398","nodes":["gtfs/station/40900","gtfs/station/40840","gtfs/station/40270","gtfs/station/40690","gtfs/station/40050","gtfs/station/40520","gtfs/station/40400","gtfs/station/41250","gtfs/station/41050"],"segmentWeights":[1108.56,657.46,928.43,696.17,717.21,458.72,668.13,1103.15]},{"id":"gtfs/route/P/1/20","routeId":"P","name":"Purple Line direction 1","color":"#522398","nodes":["gtfs/station/41050","gtfs/station/41250","gtfs/station/40400","gtfs/station/40520","gtfs/station/40050","gtfs/station/40690","gtfs/station/40270","gtfs/station/40840","gtfs/station/40900"],"segmentWeights":[1103.15,668.13,458.72,717.21,696.17,928.43,657.46,1108.56]},{"id":"gtfs/route/P/1/21","routeId":"P","name":"Purple Line direction 1","color":"#522398","nodes":["gtfs/station/41050","gtfs/station/41250","gtfs/station/40400","gtfs/station/40520","gtfs/station/40050","gtfs/station/40690","gtfs/station/40270","gtfs/station/40840","gtfs/station/40900","gtfs/station/40540","gtfs/station/41320","gtfs/station/41210","gtfs/station/40530","gtfs/station/41220","gtfs/station/40660","gtfs/station/40800","gtfs/station/40710","gtfs/station/40460","gtfs/station/40380","gtfs/station/41700","gtfs/station/40680","gtfs/station/40850","gtfs/station/40160","gtfs/station/40040","gtfs/station/40730","gtfs/station/40460","gtfs/station/40710","gtfs/station/40800","gtfs/station/40660","gtfs/station/41220","gtfs/station/40530","gtfs/station/41210","gtfs/station/41320","gtfs/station/40540","gtfs/station/40900","gtfs/station/40840","gtfs/station/40270","gtfs/station/40690","gtfs/station/40050","gtfs/station/40520","gtfs/station/40400","gtfs/station/41250","gtfs/station/41050"],"segmentWeights":[1103.15,668.13,458.72,717.21,696.17,928.43,657.46,1108.56,6479.75,2938.28,413.54,367.23,854.37,760.13,1773.33,1687.07,944.58,611.43,654.72,413.06,463.61,293.42,359.06,441.68,697.74,944.58,1687.07,1773.33,760.13,854.37,367.23,413.54,2938.28,6479.75,1108.56,657.46,928.43,696.17,717.21,458.72,668.13,1103.15]},{"id":"gtfs/route/Pink/1/22","routeId":"Pink","name":"Pink Line direction 1","color":"#E27EA6","nodes":["gtfs/station/40580","gtfs/station/40420","gtfs/station/40600","gtfs/station/40150","gtfs/station/40780","gtfs/station/41040","gtfs/station/40440","gtfs/station/40740","gtfs/station/40210","gtfs/station/40830","gtfs/station/41030","gtfs/station/40170","gtfs/station/41510","gtfs/station/41160","gtfs/station/40380","gtfs/station/41700","gtfs/station/40680","gtfs/station/40850","gtfs/station/40160","gtfs/station/40040","gtfs/station/40730","gtfs/station/41160","gtfs/station/41510","gtfs/station/40170","gtfs/station/41030","gtfs/station/40830","gtfs/station/40210","gtfs/station/40740","gtfs/station/40440","gtfs/station/41040","gtfs/station/40780","gtfs/station/40150","gtfs/station/40600","gtfs/station/40420","gtfs/station/40580"],"segmentWeights":[942.75,1078.39,742.5,784.35,784.86,880.89,801.02,764.75,905.26,1517.37,1760.53,1230.79,860.15,903.43,654.72,413.06,463.61,293.42,359.06,441.68,988.78,860.15,1230.79,1760.53,1517.37,905.26,764.75,801.02,880.89,784.86,784.35,742.5,1078.39,942.75]},{"id":"gtfs/route/Red/0/23","routeId":"Red","name":"Red Line direction 0","color":"#C60C30","nodes":["gtfs/station/40900","gtfs/station/41190","gtfs/station/40100","gtfs/station/41300","gtfs/station/40760","gtfs/station/40880","gtfs/station/41380","gtfs/station/40340","gtfs/station/41200","gtfs/station/40770","gtfs/station/40540","gtfs/station/40080","gtfs/station/41420","gtfs/station/41320","gtfs/station/41220","gtfs/station/40650","gtfs/station/40630","gtfs/station/41450","gtfs/station/40330","gtfs/station/41660","gtfs/station/41090","gtfs/station/40560","gtfs/station/41490","gtfs/station/41400","gtfs/station/41000","gtfs/station/40190","gtfs/station/41230","gtfs/station/41170","gtfs/station/40910","gtfs/station/40990","gtfs/station/40240","gtfs/station/41430","gtfs/station/40450"],"segmentWeights":[473.97,914.71,954.03,862.89,378.77,751.38,613.97,503.96,479.71,548.95,1296.93,787.0,854.36,1635.12,1715.11,1776.68,1027.18,556.79,762.55,452.0,288.34,457.56,740.97,1693.47,2451.51,2328.68,1669.39,1655.12,1477.98,1996.38,1673.48,1445.32]},{"id":"gtfs/route/Red/1/24","routeId":"Red","name":"Red Line direction 1","color":"#C60C30","nodes":["gtfs/station/40450","gtfs/station/41430","gtfs/station/40240","gtfs/station/40990","gtfs/station/40910","gtfs/station/41170","gtfs/station/41230","gtfs/station/40190","gtfs/station/41000","gtfs/station/41400","gtfs/station/41490","gtfs/station/40560","gtfs/station/41090","gtfs/station/41660","gtfs/station/40330","gtfs/station/41450","gtfs/station/40630","gtfs/station/40650","gtfs/station/41220","gtfs/station/41320","gtfs/station/41420","gtfs/station/40080","gtfs/station/40540","gtfs/station/40770","gtfs/station/41200","gtfs/station/40340","gtfs/station/41380","gtfs/station/40880","gtfs/station/40760","gtfs/station/41300","gtfs/station/40100","gtfs/station/41190","gtfs/station/40900"],"segmentWeights":[1445.32,1673.48,1996.38,1477.98,1655.12,1669.39,2328.68,2451.51,1693.47,740.97,457.56,288.34,452.0,762.55,556.79,1027.18,1776.68,1715.11,1635.12,854.36,787.0,1296.93,548.95,479.71,503.96,613.97,751.38,378.77,862.89,954.03,914.71,473.97]},{"id":"gtfs/route/Y/1/25","routeId":"Y","name":"Yellow Line direction 1","color":"#F9E300","nodes":["gtfs/station/40140","gtfs/station/41680","gtfs/station/40900"],"segmentWeights":[1466.4,6467.86]},{"id":"gtfs/route/Y/1/26","routeId":"Y","name":"Yellow Line direction 1","color":"#F9E300","nodes":["gtfs/station/40900","gtfs/station/41680","gtfs/station/40140"],"segmentWeights":[6467.86,1466.4]}]}